Time (s),Data
0.719483376,$GPGGA,235943.800,,,,,0,0,,,M,,M,,*4A\r\n
0.751139641,$GPGSA,A,1,,,,,,,,,,,,,,,*1E\r\n
0.802871227,$GPRMC,235943.800,V,,,,,0.00,0.00,050180,,,N*43\r\n
0.841783524,$GPVTG,0.00,T,,M,0.00,N,0.00,K,N*32\r\n
1.719410420,$GPGGA,235944.799,,,,,0,0,,,M,,M,,*42\r\n
1.751314640,$GPGSA,A,1,,,,,,,,,,,,,,,*1E\r\n
1.802704811,$GPRMC,235944.799,V,,,,,0.00,0.00,050180,,,N*4B\r\n
1.841583252,$GPVTG,0.00,T,,M,0.00,N,0.00,K,N*32\r\n
2.718460083,$GPGGA,235945.799,,,,,0,0,,,M,,M,,*43\r\n
2.750503063,$GPGSA,A,1,,,,,,,,,,,,,,,*1E\r\n
2.801628113,$GPRMC,235945.799,V,,,,,0.00,0.00,050180,,,N*4A\r\n
2.840528965,$GPVTG,0.00,T,,M,0.00,N,0.00,K,N*32\r\n
3.719918728,$GPGGA,235946.799,,,,,0,0,,,M,,M,,*40\r\n
3.751611710,$GPGSA,A,1,,,,,,,,,,,,,,,*1E\r\n
3.804165840,$GPGSV,2,1,05,23,,,36,20,,,33,10,,,38,24,,,38*7E\r\n
3.832576752,$GPGSV,2,2,05,15,,,29*73\r\n
3.883169174,$GPRMC,235946.799,V,,,,,0.00,0.00,050180,,,N*49\r\n
3.922012806,$GPVTG,0.00,T,,M,0.00,N,0.00,K,N*32\r\n
4.718550682,$GPGGA,235947.799,,,,,0,0,,,M,,M,,*41\r\n
4.750174999,$GPGSA,A,1,,,,,,,,,,,,,,,*1E\r\n
4.802003861,$GPRMC,235947.799,V,,,,,0.00,0.00,050180,,,N*48\r\n
4.840621948,$GPVTG,0.00,T,,M,0.00,N,0.00,K,N*32\r\n
5.718698502,$GPGGA,235948.799,,,,,0,0,,,M,,M,,*4E\r\n
5.750611305,$GPGSA,A,1,,,,,,,,,,,,,,,*1E\r\n
5.801785469,$GPRMC,235948.799,V,,,,,0.00,0.00,050180,,,N*47\r\n
5.840634346,$GPVTG,0.00,T,,M,0.00,N,0.00,K,N*32\r\n
6.718442917,$GPGGA,235949.799,,,,,0,0,,,M,,M,,*4F\r\n
6.750082016,$GPGSA,A,1,,,,,,,,,,,,,,,*1E\r\n
6.801775456,$GPRMC,235949.799,V,,,,,0.00,0.00,050180,,,N*46\r\n
6.840686321,$GPVTG,0.00,T,,M,0.00,N,0.00,K,N*32\r\n
7.718721390,$GPGGA,235950.800,,,,,0,0,,,M,,M,,*48\r\n
7.750245571,$GPGSA,A,1,,,,,,,,,,,,,,,*1E\r\n
7.801751137,$GPRMC,235950.800,V,,,,,0.00,0.00,050180,,,N*41\r\n
7.840520859,$GPVTG,0.00,T,,M,0.00,N,0.00,K,N*32\r\n
8.718981743,$GPGGA,235951.800,,,,,0,0,,,M,,M,,*49\r\n
8.750555039,$GPGSA,A,1,,,,,,,,,,,,,,,*1E\r\n
8.803382397,$GPGSV,2,1,05,23,,,36,20,,,33,10,,,37,24,,,38*71\r\n
8.831153393,$GPGSV,2,2,05,15,,,30*7B\r\n
8.882433892,$GPRMC,235951.800,V,,,,,0.00,0.00,050180,,,N*40\r\n
8.921102524,$GPVTG,0.00,T,,M,0.00,N,0.00,K,N*32\r\n
9.719658852,$GPGGA,235952.800,,,,,0,0,,,M,,M,,*4A\r\n
9.751176834,$GPGSA,A,1,,,,,,,,,,,,,,,*1E\r\n
9.802764893,$GPRMC,235952.800,V,,,,,0.00,0.00,050180,,,N*43\r\n
9.841618538,$GPVTG,0.00,T,,M,0.00,N,0.00,K,N*32\r\n
10.718560696,$GPGGA,235953.800,,,,,0,0,,,M,,M,,*4B\r\n
10.750135422,$GPGSA,A,1,,,,,,,,,,,,,,,*1E\r\n
10.801697254,$GPRMC,235953.800,V,,,,,0.00,0.00,050180,,,N*42\r\n
10.840895176,$GPVTG,0.00,T,,M,0.00,N,0.00,K,N*32\r\n
11.290930271,$GPGGA,235954.369,,,,,0,0,,,M,,M,,*48\r\n
11.322220326,$GPGSA,A,1,,,,,,,,,,,,,,,*1E\r\n
11.373807907,$GPRMC,235954.369,V,,,,,0.00,0.00,050180,,,N*41\r\n
11.412941456,$GPVTG,0.00,T,,M,0.00,N,0.00,K,N*32\r\n
11.510505200,$GPGGA,235954.589,,,,,0,0,,,M,,M,,*40\r\n
11.542165756,$GPGSA,A,1,,,,,,,,,,,,,,,*1E\r\n
11.593939781,$GPRMC,235954.589,V,,,,,0.00,0.00,050180,,,N*49\r\n
11.632592678,$GPVTG,0.00,T,,M,0.00,N,0.00,K,N*32\r\n
12.511154652,$GPGGA,081949.304,,,,,0,0,,,M,,M,,*42\r\n
12.542935372,$GPGSA,A,1,,,,,,,,,,,,,,,*1E\r\n
12.595250607,$GPGSV,2,1,05,23,,,36,20,,,32,10,,,36,24,,,39*70\r\n
12.622623444,$GPGSV,2,2,05,15,,,29*73\r\n
12.674562931,$GPRMC,081949.304,V,,,,,0.00,0.00,110180,,,N*4E\r\n
12.713042736,$GPVTG,0.00,T,,M,0.00,N,0.00,K,N*32\r\n
13.510449886,$GPGGA,081950.304,,,,,0,0,,,M,,M,,*4A\r\n
13.542056561,$GPGSA,A,1,,,,,,,,,,,,,,,*1E\r\n
13.593786240,$GPRMC,081950.304,V,,,,,0.00,0.00,110180,,,N*46\r\n
13.632533074,$GPVTG,0.00,T,,M,0.00,N,0.00,K,N*32\r\n
14.510935307,$GPGGA,081951.304,,,,,0,0,,,M,,M,,*4B\r\n
14.542719841,$GPGSA,A,1,,,,,,,,,,,,,,,*1E\r\n
14.593870163,$GPRMC,081951.304,V,,,,,0.00,0.00,110180,,,N*47\r\n
14.632994175,$GPVTG,0.00,T,,M,0.00,N,0.00,K,N*32\r\n
15.509409428,$GPGGA,081952.304,,,,,0,0,,,M,,M,,*48\r\n
15.541325092,$GPGSA,A,1,,,,,,,,,,,,,,,*1E\r\n
15.592901707,$GPRMC,081952.304,V,,,,,0.00,0.00,110180,,,N*44\r\n
15.631571770,$GPVTG,0.00,T,,M,0.00,N,0.00,K,N*32\r\n
16.509726048,$GPGGA,081953.304,,,,,0,0,,,M,,M,,*49\r\n
16.541124821,$GPGSA,A,1,,,,,,,,,,,,,,,*1E\r\n
16.592681885,$GPRMC,081953.304,V,,,,,0.00,0.00,110180,,,N*45\r\n
16.631672859,$GPVTG,0.00,T,,M,0.00,N,0.00,K,N*32\r\n
17.303904533,$GPGGA,081954.097,,,,,0,0,,,M,,M,,*47\r\n
17.335535526,$GPGSA,A,1,,,,,,,,,,,,,,,*1E\r\n
17.388122082,$GPGSV,2,1,05,23,,,36,20,,,32,10,,,36,24,,,39*70\r\n
17.415581226,$GPGSV,2,2,05,15,,,30*7B\r\n
17.467001915,$GPRMC,081954.097,V,,,,,0.00,0.00,110180,,,N*4B\r\n
17.505898476,$GPVTG,0.00,T,,M,0.00,N,0.00,K,N*32\r\n
17.546717167,$GPGGA,081954.316,,,,,0,0,,,M,,M,,*4D\r\n
17.578395844,$GPGSA,A,1,,,,,,,,,,,,,,,*1E\r\n
17.629885674,$GPRMC,081954.316,V,,,,,0.00,0.00,110180,,,N*41\r\n
17.669550419,$GPVTG,0.00,T,,M,0.00,N,0.00,K,N*32\r\n
18.522471428,$GPGGA,081955.316,,,,,0,0,,,M,,M,,*4C\r\n
18.554247856,$GPGSA,A,1,,,,,,,,,,,,,,,*1E\r\n
18.605887890,$GPRMC,081955.316,V,,,,,0.00,0.00,110180,,,N*40\r\n
18.644518852,$GPVTG,0.00,T,,M,0.00,N,0.00,K,N*32\r\n
19.521527767,$GPGGA,081956.316,,,,,0,0,,,M,,M,,*4F\r\n
19.553305626,$GPGSA,A,1,,,,,,,,,,,,,,,*1E\r\n
19.604863167,$GPRMC,081956.316,V,,,,,0.00,0.00,110180,,,N*43\r\n
19.643568993,$GPVTG,0.00,T,,M,0.00,N,0.00,K,N*32\r\n
20.521850586,$GPGGA,081957.316,,,,,0,0,,,M,,M,,*4E\r\n
20.553146362,$GPGSA,A,1,,,,,,,,,,,,,,,*1E\r\n
20.604706288,$GPRMC,081957.316,V,,,,,0.00,0.00,110180,,,N*42\r\n
20.643582821,$GPVTG,0.00,T,,M,0.00,N,0.00,K,N*32\r\n
21.521845818,$GPGGA,081958.316,,,,,0,0,,,M,,M,,*41\r\n
21.553432465,$GPGSA,A,1,,,,,,,,,,,,,,,*1E\r\n
21.606044769,$GPGSV,2,1,05,23,,,36,20,,,32,10,,,39,24,,,39*7F\r\n
21.633515358,$GPGSV,2,2,05,15,,,29*73\r\n
21.685086250,$GPRMC,081958.316,V,,,,,0.00,0.00,110180,,,N*4D\r\n
21.723977566,$GPVTG,0.00,T,,M,0.00,N,0.00,K,N*32\r\n
22.521609306,$GPGGA,081959.316,,,,,0,0,,,M,,M,,*40\r\n
22.553524017,$GPGSA,A,1,,,,,,,,,,,,,,,*1E\r\n
22.604661942,$GPRMC,081959.316,V,,,,,0.00,0.00,110180,,,N*4C\r\n
22.643548489,$GPVTG,0.00,T,,M,0.00,N,0.00,K,N*32\r\n
23.364338875,$GPGGA,082000.092,,,,,0,5,,,M,,M,,*4C\r\n
23.395358563,$GPGSA,A,1,,,,,,,,,,,,,,,*1E\r\n
23.446375370,$GPRMC,082000.092,V,,,,,0.10,0.00,091020,,,N*47\r\n
23.485012055,$GPVTG,0.00,T,,M,0.10,N,0.18,K,N*3A\r\n
24.368827343,$GPGGA,082001.092,2217.4224,N,11412.6881,E,1,5,2.45,7.4,M,-0.9,M,,*4B\r\n
24.423009873,$GPGSA,A,2,23,20,10,24,15,,,,,,,,2.63,2.45,0.97*09\r\n
24.498029232,$GPRMC,082001.092,A,2217.4224,N,11412.6881,E,0.72,213.26,091020,,,A*63\r\n
24.538816929,$GPVTG,213.26,T,,M,0.72,N,1.33,K,A*3D\r\n
25.371012211,$GPGGA,082002.092,2217.4253,N,11412.6896,E,1,5,2.45,11.4,M,-0.9,M,,*79\r\n
25.425109863,$GPGSA,A,2,23,20,10,24,15,,,,,,,,2.63,2.45,0.97*09\r\n
25.500053883,$GPRMC,082002.092,A,2217.4253,N,11412.6896,E,0.86,214.19,091020,,,A*66\r\n
25.540687561,$GPVTG,214.19,T,,M,0.86,N,1.58,K,A*30\r\n
27.278456211,$GPGGA,082004.000,2217.4211,N,11412.6871,E,1,5,2.45,-2.0,M,-0.9,M,,*60\r\n
27.332599640,$GPGSA,A,2,23,20,10,24,15,,,,,,,,2.63,2.45,0.97*09\r\n
27.403419018,$GPGSV,2,1,07,20,81,057,34,23,75,035,37,10,51,336,40,42,50,127,*72\r\n
27.456513882,$GPGSV,2,2,07,24,34,036,37,15,14,073,22,193,,,*40\r\n
27.532374382,$GPRMC,082004.000,A,2217.4211,N,11412.6871,E,0.74,202.59,091020,,,A*6A\r\n
27.572150707,$GPVTG,202.59,T,,M,0.74,N,1.37,K,A*37\r\n
28.276924610,$GPGGA,082005.000,2217.4226,N,11412.6871,E,1,5,2.45,0.3,M,-0.9,M,,*49\r\n
28.332395554,$GPGSA,A,2,23,20,10,24,15,,,,,,,,2.63,2.45,0.97*09\r\n
28.406048775,$GPRMC,082005.000,A,2217.4226,N,11412.6871,E,2.04,202.19,091020,,,A*6E\r\n
28.446720600,$GPVTG,202.19,T,,M,2.04,N,3.78,K,A*3F\r\n
29.277977943,$GPGGA,082006.000,2217.4214,N,11412.6867,E,1,5,2.45,-3.4,M,-0.9,M,,*65\r\n
29.332570076,$GPGSA,A,2,23,20,10,24,15,,,,,,,,2.63,2.45,0.97*09\r\n
29.407137871,$GPRMC,082006.000,A,2217.4214,N,11412.6867,E,1.36,196.32,091020,,,A*6E\r\n
29.447763443,$GPVTG,196.32,T,,M,1.36,N,2.52,K,A*33\r\n
30.280925274,$GPGGA,082007.000,2217.4163,N,11412.6848,E,1,5,2.45,-11.2,M,-0.9,M,,*5F\r\n
30.335049152,$GPGSA,A,3,23,20,10,24,15,,,,,,,,2.63,2.45,0.97*08\r\n
30.409170628,$GPRMC,082007.000,A,2217.4163,N,11412.6848,E,0.88,83.68,091020,,,A*5F\r\n
30.448782921,$GPVTG,83.68,T,,M,0.88,N,1.64,K,A*0B\r\n
31.278756142,$GPGGA,082008.000,2217.4186,N,11412.6855,E,1,5,2.45,-7.8,M,-0.9,M,,*6A\r\n
31.332967758,$GPGSA,A,3,23,20,10,24,15,,,,,,,,2.63,2.45,0.97*08\r\n
31.407246590,$GPRMC,082008.000,A,2217.4186,N,11412.6855,E,0.79,88.42,091020,,,A*5A\r\n
31.446660042,$GPVTG,88.42,T,,M,0.79,N,1.46,K,A*06\r\n
32.279426098,$GPGGA,082009.000,2217.4214,N,11412.6834,E,1,5,2.45,-0.8,M,-0.9,M,,*63\r\n
32.333614826,$GPGSA,A,3,23,20,10,24,15,,,,,,,,2.63,2.45,0.97*08\r\n
32.404366016,$GPGSV,2,1,07,20,81,057,32,23,75,035,36,10,51,336,40,42,50,127,*75\r\n
32.457713127,$GPGSV,2,2,07,24,34,036,36,15,14,073,24,193,,,*47\r\n
32.532744408,$GPRMC,082009.000,A,2217.4214,N,11412.6834,E,0.71,162.86,091020,,,A*61\r\n
32.573142529,$GPVTG,162.86,T,,M,0.71,N,1.32,K,A*30\r\n
33.279897690,$GPGGA,082010.000,2217.4157,N,11412.6815,E,1,5,3.91,-13.7,M,-0.9,M,,*59\r\n
33.334075928,$GPGSA,A,3,23,20,10,24,15,,,,,,,,5.56,3.91,3.95*00\r\n
33.409257889,$GPRMC,082010.000,A,2217.4157,N,11412.6815,E,0.38,162.86,091020,,,A*63\r\n
33.449668884,$GPVTG,162.86,T,,M,0.38,N,0.70,K,A*3A\r\n
34.277887821,$GPGGA,082011.000,2217.4221,N,11412.6841,E,1,5,2.44,7.7,M,-0.9,M,,*4A\r\n
34.332208634,$GPGSA,A,3,23,20,10,24,15,,,,,,,,2.63,2.44,0.97*09\r\n
34.407052994,$GPRMC,082011.000,A,2217.4221,N,11412.6841,E,0.51,162.86,091020,,,A*6E\r\n
34.447744370,$GPVTG,162.86,T,,M,0.51,N,0.94,K,A*3F\r\n
35.278890133,$GPGGA,082012.000,2217.4196,N,11412.6836,E,1,5,2.44,-2.8,M,-0.9,M,,*61\r\n
35.333074570,$GPGSA,A,3,23,20,10,24,15,,,,,,,,2.63,2.44,0.97*09\r\n
35.408037663,$GPRMC,082012.000,A,2217.4196,N,11412.6836,E,0.31,162.86,091020,,,A*64\r\n
35.448729992,$GPVTG,162.86,T,,M,0.31,N,0.57,K,A*36\r\n
36.282956600,$GPGGA,082013.000,2217.4190,N,11412.6839,E,1,5,2.44,-5.5,M,-0.9,M,,*63\r\n
36.337121964,$GPGSA,A,3,23,20,10,24,15,,,,,,,,2.63,2.44,0.97*09\r\n
36.412322044,$GPRMC,082013.000,A,2217.4190,N,11412.6839,E,0.89,229.76,091020,,,A*6C\r\n
36.452903748,$GPVTG,229.76,T,,M,0.89,N,1.64,K,A*37\r\n
37.280528545,$GPGGA,082014.000,2217.4207,N,11412.6853,E,1,5,2.44,-2.7,M,-0.9,M,,*60\r\n
37.334694862,$GPGSA,A,3,23,20,10,24,15,,,,,,,,2.63,2.44,0.97*09\r\n
37.405461311,$GPGSV,2,1,08,20,81,057,31,23,75,035,34,10,51,336,40,50,46,122,*7A\r\n
37.469027996,$GPGSV,2,2,08,24,34,036,36,15,14,073,27,193,,,35,12,,,36*4B\r\n
37.543989182,$GPRMC,082014.000,A,2217.4207,N,11412.6853,E,0.87,241.12,091020,,,A*68\r\n
37.584707737,$GPVTG,241.12,T,,M,0.87,N,1.61,K,A*30\r\n
38.276922226,$GPGGA,082015.000,2217.4217,N,11412.6838,E,1,5,2.44,-4.5,M,-0.9,M,,*69\r\n
38.332985878,$GPGSA,A,3,23,20,10,24,15,,,,,,,,2.63,2.44,0.97*09\r\n
38.406103134,$GPRMC,082015.000,A,2217.4217,N,11412.6838,E,0.70,231.10,091020,,,A*68\r\n
38.446706772,$GPVTG,231.10,T,,M,0.70,N,1.29,K,A*31\r\n
39.276974201,$GPGGA,082016.000,2217.4214,N,11412.6842,E,1,5,2.44,-2.1,M,-0.9,M,,*66\r\n
39.332220554,$GPGSA,A,3,23,20,10,24,15,,,,,,,,2.63,2.44,0.97*09\r\n
39.406227112,$GPRMC,082016.000,A,2217.4214,N,11412.6842,E,0.38,231.10,091020,,,A*69\r\n
39.446668148,$GPVTG,231.10,T,,M,0.38,N,0.70,K,A*30\r\n
40.284001827,$GPGGA,082017.000,2217.4206,N,11412.6854,E,1,5,2.44,0.0,M,-0.9,M,,*4D\r\n
40.338334084,$GPGSA,A,3,23,20,10,24,15,,,,,,,,2.63,2.44,0.97*09\r\n
40.413172245,$GPRMC,082017.000,A,2217.4206,N,11412.6854,E,0.49,231.10,091020,,,A*6A\r\n
40.453891277,$GPVTG,231.10,T,,M,0.49,N,0.92,K,A*3A\r\n
41.289254665,$GPGGA,082018.000,2217.4292,N,11412.6879,E,1,5,2.44,19.7,M,-0.9,M,,*7F\r\n
41.343401909,$GPGSA,A,3,23,20,10,24,15,,,,,,,,2.63,2.44,0.97*09\r\n
41.418499947,$GPRMC,082018.000,A,2217.4292,N,11412.6879,E,0.39,231.10,091020,,,A*60\r\n
41.458827019,$GPVTG,231.10,T,,M,0.39,N,0.72,K,A*33\r\n
42.289367199,$GPGGA,082019.000,2217.4250,N,11412.6854,E,1,5,2.44,9.5,M,-0.9,M,,*4C\r\n
42.343541145,$GPGSA,A,3,23,20,10,24,15,,,,,,,,2.63,2.44,0.97*09\r\n
42.414648533,$GPGSV,2,1,08,20,81,057,31,23,75,035,34,10,51,336,40,50,46,122,*7A\r\n
42.477903366,$GPGSV,2,2,08,24,34,036,35,15,14,073,26,193,,,33,12,,,35*4C\r\n
42.552886009,$GPRMC,082019.000,A,2217.4250,N,11412.6854,E,0.26,231.10,091020,,,A*6E\r\n
42.593515873,$GPVTG,231.10,T,,M,0.26,N,0.48,K,A*34\r\n
43.289389610,$GPGGA,082020.000,2217.4209,N,11412.6856,E,1,5,2.44,3.0,M,-0.9,M,,*47\r\n
43.343222141,$GPGSA,A,3,23,20,10,24,15,,,,,,,,2.63,2.44,0.97*09\r\n
43.418236256,$GPRMC,082020.000,A,2217.4209,N,11412.6856,E,0.30,231.10,091020,,,A*6D\r\n
43.458745003,$GPVTG,231.10,T,,M,0.30,N,0.56,K,A*3C\r\n
44.287988186,$GPGGA,082021.000,2217.4222,N,11412.6881,E,1,5,2.44,5.9,M,-0.9,M,,*4A\r\n
44.342506886,$GPGSA,A,3,23,20,10,24,15,,,,,,,,2.62,2.44,0.97*08\r\n
44.416178227,$GPRMC,082021.000,A,2217.4222,N,11412.6881,E,1.42,43.46,091020,,,A*5F\r\n
44.455642223,$GPVTG,43.46,T,,M,1.42,N,2.64,K,A*0F\r\n
45.280977726,$GPGGA,082022.000,2217.4247,N,11412.6886,E,1,5,2.44,13.6,M,-0.9,M,,*75\r\n
45.335175991,$GPGSA,A,3,23,20,10,24,15,,,,,,,,2.62,2.44,0.97*08\r\n
45.409109116,$GPRMC,082022.000,A,2217.4247,N,11412.6886,E,1.87,42.89,091020,,,A*53\r\n
45.448714256,$GPVTG,42.89,T,,M,1.87,N,3.47,K,A*04\r\n
46.280804157,$GPGGA,082023.000,2217.4306,N,11412.6902,E,1,5,2.44,25.5,M,-0.9,M,,*7B\r\n
46.335030556,$GPGSA,A,3,23,20,10,24,15,,,,,,,,2.63,2.44,0.97*09\r\n
46.409158707,$GPRMC,082023.000,A,2217.4306,N,11412.6902,E,0.68,90.97,091020,,,A*5B\r\n
46.448607922,$GPVTG,90.97,T,,M,0.68,N,1.25,K,A*02\r\n
47.280380249,$GPGGA,082024.000,2217.4344,N,11412.6929,E,1,5,2.44,32.7,M,-0.9,M,,*77\r\n
47.334534168,$GPGSA,A,3,23,20,10,24,15,,,,,,,,2.62,2.44,0.97*08\r\n
47.407485008,$GPGSV,2,1,08,20,82,059,32,23,75,035,35,10,51,336,41,24,34,036,36*73\r\n
47.469249725,$GPGSV,2,2,08,44,30,251,,15,14,073,25,193,,,32,12,,,34*48\r\n
47.542882443,$GPRMC,082024.000,A,2217.4344,N,11412.6929,E,0.06,90.97,091020,,,A*5B\r\n
47.582430840,$GPVTG,90.97,T,,M,0.06,N,0.11,K,A*0C\r\n
48.282489300,$GPGGA,082025.000,2217.4317,N,11412.6916,E,1,5,2.44,25.5,M,-0.9,M,,*78\r\n
48.336324692,$GPGSA,A,3,23,20,10,24,15,,,,,,,,2.62,2.44,0.97*08\r\n
48.411139488,$GPRMC,082025.000,A,2217.4317,N,11412.6916,E,1.09,221.48,091020,,,A*64\r\n
48.451790333,$GPVTG,221.48,T,,M,1.09,N,2.02,K,A*38\r\n
49.281245709,$GPGGA,082026.000,2217.4305,N,11412.6902,E,1,5,2.44,17.1,M,-0.9,M,,*78\r\n
49.335359573,$GPGSA,A,3,23,20,10,24,15,,,,,,,,2.62,2.44,0.97*08\r\n
49.410299301,$GPRMC,082026.000,A,2217.4305,N,11412.6902,E,0.81,191.69,091020,,,A*6B\r\n
49.450917721,$GPVTG,191.69,T,,M,0.81,N,1.50,K,A*36\r\n
50.279987812,$GPGGA,082027.000,2217.4259,N,11412.6879,E,1,5,2.44,7.1,M,-0.9,M,,*4D\r\n
50.334399223,$GPGSA,A,3,23,20,10,24,15,,,,,,,,2.62,2.44,0.97*08\r\n
50.409118652,$GPRMC,082027.000,A,2217.4259,N,11412.6879,E,0.60,210.00,091020,,,A*65\r\n
50.450041294,$GPVTG,210.00,T,,M,0.60,N,1.12,K,A*3A\r\n
51.280186176,$GPGGA,082028.000,2217.4236,N,11412.6874,E,1,5,2.44,0.3,M,-0.9,M,,*43\r\n
51.334019661,$GPGSA,A,3,23,20,10,24,15,,,,,,,,2.62,2.44,0.97*08\r\n
51.409094334,$GPRMC,082028.000,A,2217.4236,N,11412.6874,E,1.07,215.89,091020,,,A*6A\r\n
51.449644089,$GPVTG,215.89,T,,M,1.07,N,1.99,K,A*3D\r\n
52.282586098,$GPGGA,082029.000,2217.4153,N,11412.6834,E,1,5,2.44,-15.3,M,-0.9,M,,*5F\r\n
52.336751461,$GPGSA,A,3,23,20,10,24,15,,,,,,,,2.62,2.44,0.97*08\r\n
52.409657478,$GPGSV,3,1,09,20,82,059,32,23,75,036,34,10,51,336,41,24,34,037,36*70\r\n
52.471132279,$GPGSV,3,2,09,44,30,251,,15,14,073,25,193,,,32,12,,,35*49\r\n
52.498215199,$GPGSV,3,3,09,32,,,34*76\r\n
52.573213101,$GPRMC,082029.000,A,2217.4153,N,11412.6834,E,0.77,213.64,091020,,,A*6C\r\n
52.613863468,$GPVTG,213.64,T,,M,0.77,N,1.43,K,A*39\r\n
53.280062676,$GPGGA,082030.000,2217.4220,N,11412.6861,E,1,5,2.44,3.1,M,-0.9,M,,*48\r\n
53.334437370,$GPGSA,A,3,23,20,10,24,15,,,,,,,,2.62,2.44,0.97*08\r\n
53.409140110,$GPRMC,082030.000,A,2217.4220,N,11412.6861,E,0.28,213.64,091020,,,A*69\r\n
53.449641705,$GPVTG,213.64,T,,M,0.28,N,0.52,K,A*32\r\n
54.356943607,$GPGGA,082031.000,2217.4332,N,11412.6912,E,1,7,3.02,33.8,M,-0.9,M,,*75\r\n
54.416301727,$GPGSA,A,3,23,20,10,12,24,15,193,,,,,,4.33,3.02,3.11*3C\r\n
54.491308212,$GPRMC,082031.000,A,2217.4332,N,11412.6912,E,0.46,213.64,091020,,,A*67\r\n
54.532133103,$GPVTG,213.64,T,,M,0.46,N,0.85,K,A*30\r\n
55.343001843,$GPGGA,082032.000,2217.4336,N,11412.6912,E,1,7,3.02,32.2,M,-0.9,M,,*79\r\n
55.402353764,$GPGSA,A,3,23,20,10,12,24,15,193,,,,,,4.34,3.02,3.11*3B\r\n
55.476325035,$GPRMC,082032.000,A,2217.4336,N,11412.6912,E,0.62,10.66,091020,,,A*55\r\n
55.515972614,$GPVTG,10.66,T,,M,0.62,N,1.15,K,A*0D\r\n
56.346100330,$GPGGA,082033.000,2217.4338,N,11412.6913,E,1,7,3.02,33.0,M,-0.9,M,,*74\r\n
56.405536175,$GPGSA,A,3,23,20,10,12,24,15,193,,,,,,4.33,3.02,3.11*3C\r\n
56.479410648,$GPRMC,082033.000,A,2217.4338,N,11412.6913,E,0.56,10.66,091020,,,A*5C\r\n
56.518961907,$GPVTG,10.66,T,,M,0.56,N,1.04,K,A*0A\r\n
57.347146511,$GPGGA,082034.000,2217.4339,N,11412.6915,E,1,7,2.00,33.0,M,-0.9,M,,*77\r\n
57.405988216,$GPGSA,A,3,23,20,10,12,24,15,193,,,,,,2.22,2.00,0.95*36\r\n
57.480418682,$GPGSV,3,1,09,20,82,059,33,23,75,036,35,193,61,071,32,10,51,336,41*4B\r\n
57.550712109,$GPGSV,3,2,09,24,34,037,36,12,34,103,31,40,28,252,,15,14,073,24*7D\r\n
57.577825070,$GPGSV,3,3,09,32,,,33*71\r\n
57.651834965,$GPRMC,082034.000,A,2217.4339,N,11412.6915,E,0.54,10.66,091020,,,A*5E\r\n
57.691368580,$GPVTG,10.66,T,,M,0.54,N,0.99,K,A*0D\r\n
58.345164299,$GPGGA,082035.000,2217.4340,N,11412.6916,E,1,7,2.00,33.3,M,-0.9,M,,*78\r\n
58.404119015,$GPGSA,A,3,23,20,10,12,24,15,193,,,,,,2.22,2.00,0.95*36\r\n
58.478082657,$GPRMC,082035.000,A,2217.4340,N,11412.6916,E,0.49,10.66,091020,,,A*5E\r\n
58.517684937,$GPVTG,10.66,T,,M,0.49,N,0.92,K,A*0A\r\n
59.346941471,$GPGGA,082036.000,2217.4340,N,11412.6917,E,1,7,2.00,32.7,M,-0.9,M,,*7F\r\n
59.406424999,$GPGSA,A,3,23,20,10,12,24,15,193,,,,,,2.22,2.00,0.95*36\r\n
59.480424881,$GPRMC,082036.000,A,2217.4340,N,11412.6917,E,0.47,10.66,091020,,,A*52\r\n
59.520331383,$GPVTG,10.66,T,,M,0.47,N,0.88,K,A*0F\r\n
60.352231503,$GPGGA,082037.000,2217.4336,N,11412.6917,E,1,7,2.00,31.4,M,-0.9,M,,*7F\r\n
60.411476135,$GPGSA,A,3,23,20,10,12,24,15,193,,,,,,2.22,2.00,0.95*36\r\n
60.485274315,$GPRMC,082037.000,A,2217.4336,N,11412.6917,E,0.49,10.66,091020,,,A*5C\r\n
60.524893284,$GPVTG,10.66,T,,M,0.49,N,0.91,K,A*09\r\n
61.356046677,$GPGGA,082038.000,2217.4336,N,11412.6918,E,1,7,2.00,31.2,M,-0.9,M,,*79\r\n
61.415229797,$GPGSA,A,3,23,20,10,12,24,15,193,,,,,,2.22,2.00,0.95*36\r\n
61.489193916,$GPRMC,082038.000,A,2217.4336,N,11412.6918,E,0.31,10.66,091020,,,A*53\r\n
61.528839588,$GPVTG,10.66,T,,M,0.31,N,0.57,K,A*0C\r\n
62.355465889,$GPGGA,082039.000,2217.4331,N,11412.6918,E,1,7,2.00,29.9,M,-0.9,M,,*7D\r\n
62.414879322,$GPGSA,A,3,23,20,10,12,24,15,193,,,,,,2.22,2.00,0.95*36\r\n
62.489040852,$GPGSV,3,1,10,20,82,059,31,23,75,036,35,193,61,071,32,10,51,336,42*42\r\n
62.558185101,$GPGSV,3,2,10,42,50,127,,24,34,037,37,12,34,103,31,25,34,148,*76\r\n
62.598174572,$GPGSV,3,3,10,15,14,073,23,32,,,29*46\r\n
62.672146797,$GPRMC,082039.000,A,2217.4331,N,11412.6918,E,0.33,10.66,091020,,,A*57\r\n
62.711991787,$GPVTG,10.66,T,,M,0.33,N,0.61,K,A*0B\r\n
63.355116844,$GPGGA,082040.000,2217.4331,N,11412.6919,E,1,7,2.00,29.7,M,-0.9,M,,*7C\r\n
63.414367676,$GPGSA,A,3,23,20,10,12,24,15,193,,,,,,2.22,2.00,0.95*36\r\n
63.488326073,$GPRMC,082040.000,A,2217.4331,N,11412.6919,E,0.33,10.66,091020,,,A*58\r\n
63.527897835,$GPVTG,10.66,T,,M,0.33,N,0.61,K,A*0B\r\n
64.355825901,$GPGGA,082041.000,2217.4327,N,11412.6918,E,1,7,2.00,28.9,M,-0.9,M,,*74\r\n
64.415230751,$GPGSA,A,3,23,20,10,12,24,15,193,,,,,,2.22,2.00,0.95*36\r\n
64.489188671,$GPRMC,082041.000,A,2217.4327,N,11412.6918,E,0.25,10.66,091020,,,A*58\r\n
64.528783798,$GPVTG,10.66,T,,M,0.25,N,0.47,K,A*08\r\n
65.356085777,$GPGGA,082042.000,2217.4325,N,11412.6919,E,1,7,3.03,28.4,M,-0.9,M,,*7B\r\n
65.415428639,$GPGSA,A,3,23,20,10,12,24,15,193,,,,,,4.35,3.03,3.12*38\r\n
65.489301205,$GPRMC,082042.000,A,2217.4325,N,11412.6919,E,0.18,10.66,091020,,,A*56\r\n
65.528956890,$GPVTG,10.66,T,,M,0.18,N,0.34,K,A*02\r\n
66.352147579,$GPGGA,082043.000,2217.4321,N,11412.6917,E,1,7,2.00,27.5,M,-0.9,M,,*7C\r\n
66.410572529,$GPGSA,A,3,23,20,10,12,24,15,193,,,,,,2.22,2.00,0.95*36\r\n
66.484342575,$GPRMC,082043.000,A,2217.4321,N,11412.6917,E,0.01,10.66,091020,,,A*55\r\n
66.523933888,$GPVTG,10.66,T,,M,0.01,N,0.02,K,A*0F\r\n
67.346582890,$GPGGA,082044.000,2217.4320,N,11412.6917,E,1,7,2.00,27.1,M,-0.9,M,,*7E\r\n
67.405952931,$GPGSA,A,3,23,20,10,12,24,15,193,,,,,,2.22,2.00,0.95*36\r\n
67.479918957,$GPGSV,3,1,10,20,82,059,33,23,75,036,36,193,61,071,34,10,51,336,41*46\r\n
67.548788548,$GPGSV,3,2,10,42,50,127,,24,34,037,37,12,34,103,30,25,34,148,*77\r\n
67.589327812,$GPGSV,3,3,10,15,14,073,22,32,,,36*49\r\n
67.663252354,$GPRMC,082044.000,A,2217.4320,N,11412.6917,E,0.04,10.66,091020,,,A*56\r\n
67.702835083,$GPVTG,10.66,T,,M,0.04,N,0.08,K,A*00\r\n
68.347068787,$GPGGA,082045.000,2217.4318,N,11412.6916,E,1,7,2.00,26.9,M,-0.9,M,,*7C\r\n
68.406400204,$GPGSA,A,3,23,20,10,12,24,15,193,,,,,,2.22,2.00,0.95*36\r\n
68.480285645,$GPRMC,082045.000,A,2217.4318,N,11412.6916,E,0.08,10.66,091020,,,A*51\r\n
68.520004273,$GPVTG,10.66,T,,M,0.08,N,0.15,K,A*00\r\n
69.346038818,$GPGGA,082046.000,2217.4316,N,11412.6916,E,1,7,2.00,26.5,M,-0.9,M,,*7D\r\n
69.405395508,$GPGSA,A,3,23,20,10,12,24,15,193,,,,,,2.22,2.00,0.95*36\r\n
69.479412079,$GPRMC,082046.000,A,2217.4316,N,11412.6916,E,0.10,10.66,091020,,,A*55\r\n
69.518948078,$GPVTG,10.66,T,,M,0.10,N,0.19,K,A*05\r\n
70.346859932,$GPGGA,082047.000,2217.4313,N,11412.6915,E,1,7,2.00,25.4,M,-0.9,M,,*78\r\n
70.406298637,$GPGSA,A,3,23,20,10,12,24,15,193,,,,,,2.22,2.00,0.95*36\r\n
70.480395317,$GPRMC,082047.000,A,2217.4313,N,11412.6915,E,0.10,10.66,091020,,,A*52\r\n
70.519814968,$GPVTG,10.66,T,,M,0.10,N,0.19,K,A*05\r\n
71.347393513,$GPGGA,082048.000,2217.4312,N,11412.6915,E,1,7,2.00,24.7,M,-0.9,M,,*74\r\n
71.406371594,$GPGSA,A,3,23,20,10,12,24,15,193,,,,,,2.22,2.00,0.95*36\r\n
71.480288983,$GPRMC,082048.000,A,2217.4312,N,11412.6915,E,0.14,10.66,091020,,,A*58\r\n
71.519864082,$GPVTG,10.66,T,,M,0.14,N,0.26,K,A*0D\r\n
72.349448681,$GPGGA,082049.000,2217.4310,N,11412.6914,E,1,7,2.00,23.9,M,-0.9,M,,*7F\r\n
72.408866882,$GPGSA,A,3,23,20,10,12,24,15,193,,,,,,2.22,2.00,0.95*36\r\n
72.482880116,$GPGSV,3,1,10,20,82,059,32,23,75,036,37,193,61,071,35,10,51,336,41*47\r\n
72.551668167,$GPGSV,3,2,10,50,46,122,,24,34,037,37,12,34,103,28,25,34,148,*7F\r\n
72.592189312,$GPGSV,3,3,10,15,14,073,22,32,,,36*49\r\n
72.666236878,$GPRMC,082049.000,A,2217.4310,N,11412.6914,E,0.16,10.66,091020,,,A*58\r\n
72.705883503,$GPVTG,10.66,T,,M,0.16,N,0.30,K,A*08\r\n
73.345995426,$GPGGA,082050.000,2217.4311,N,11412.6915,E,1,7,2.00,23.9,M,-0.9,M,,*77\r\n
73.405385971,$GPGSA,A,3,23,20,10,12,24,15,193,,,,,,2.22,2.00,0.95*36\r\n
73.479309559,$GPRMC,082050.000,A,2217.4311,N,11412.6915,E,0.22,10.66,091020,,,A*57\r\n
73.518898487,$GPVTG,10.66,T,,M,0.22,N,0.41,K,A*09\r\n
74.346355915,$GPGGA,082051.000,2217.4311,N,11412.6915,E,1,7,2.00,23.9,M,-0.9,M,,*76\r\n
74.405343056,$GPGSA,A,3,23,20,10,12,24,15,193,,,,,,2.22,2.00,0.95*36\r\n
74.479342461,$GPRMC,082051.000,A,2217.4311,N,11412.6915,E,0.18,10.66,091020,,,A*5F\r\n
74.519022942,$GPVTG,10.66,T,,M,0.18,N,0.33,K,A*05\r\n
75.353831291,$GPGGA,082052.000,2217.4311,N,11412.6916,E,1,7,2.00,23.9,M,-0.9,M,,*76\r\n
75.413352966,$GPGSA,A,3,23,20,10,12,24,15,193,,,,,,2.22,2.00,0.95*36\r\n
75.487179756,$GPRMC,082052.000,A,2217.4311,N,11412.6916,E,0.15,10.66,091020,,,A*52\r\n
75.526751042,$GPVTG,10.66,T,,M,0.15,N,0.28,K,A*02\r\n
76.346116543,$GPGGA,082053.000,2217.4311,N,11412.6916,E,1,7,2.00,23.9,M,-0.9,M,,*77\r\n
76.405591488,$GPGSA,A,3,23,20,10,12,24,15,193,,,,,,2.22,2.00,0.95*36\r\n
76.479340077,$GPRMC,082053.000,A,2217.4311,N,11412.6916,E,0.25,10.66,091020,,,A*50\r\n
76.518955708,$GPVTG,10.66,T,,M,0.25,N,0.46,K,A*09\r\n
77.347445965,$GPGGA,082054.000,2217.4310,N,11412.6917,E,1,7,2.00,23.9,M,-0.9,M,,*70\r\n
77.406816483,$GPGSA,A,3,23,20,10,12,24,15,193,,,,,,2.22,2.00,0.95*36\r\n
77.480828762,$GPGSV,3,1,10,20,82,059,31,23,75,036,37,193,61,071,34,10,51,336,41*45\r\n
77.549950123,$GPGSV,3,2,10,50,46,122,,24,34,037,38,12,34,103,29,25,34,148,*71\r\n
77.590335369,$GPGSV,3,3,10,15,14,073,22,32,,,32*4D\r\n
77.664185047,$GPRMC,082054.000,A,2217.4310,N,11412.6917,E,0.25,10.66,091020,,,A*57\r\n
77.704059124,$GPVTG,10.66,T,,M,0.25,N,0.47,K,A*08\r\n
78.348305702,$GPGGA,082055.000,2217.4309,N,11412.6917,E,1,7,2.00,23.9,M,-0.9,M,,*79\r\n
78.407619953,$GPGSA,A,3,23,20,10,12,24,15,193,,,,,,2.22,2.00,0.95*36\r\n
78.481439114,$GPRMC,082055.000,A,2217.4309,N,11412.6917,E,0.28,10.66,091020,,,A*53\r\n
78.521322250,$GPVTG,10.66,T,,M,0.28,N,0.51,K,A*02\r\n
79.344862461,$GPGGA,082056.000,2217.4309,N,11412.6917,E,1,7,2.00,23.9,M,-0.9,M,,*7A\r\n
79.404233933,$GPGSA,A,3,23,20,10,12,24,15,193,,,,,,2.22,2.00,0.95*36\r\n
79.478315830,$GPRMC,082056.000,A,2217.4309,N,11412.6917,E,0.30,10.66,091020,,,A*59\r\n
79.517979145,$GPVTG,10.66,T,,M,0.30,N,0.56,K,A*0C\r\n
80.344939232,$GPGGA,082057.000,2217.4308,N,11412.6917,E,1,7,2.00,23.9,M,-0.9,M,,*7A\r\n
80.404294014,$GPGSA,A,3,23,20,10,12,24,15,193,,,,,,2.22,2.00,0.95*36\r\n
80.478302002,$GPRMC,082057.000,A,2217.4308,N,11412.6917,E,0.26,10.66,091020,,,A*5E\r\n
80.517865181,$GPVTG,10.66,T,,M,0.26,N,0.48,K,A*04\r\n
81.346293926,$GPGGA,082058.000,2217.4307,N,11412.6917,E,1,7,2.00,23.9,M,-0.9,M,,*7A\r\n
81.405459404,$GPGSA,A,3,23,20,10,12,24,15,193,,,,,,2.22,2.00,0.95*36\r\n
81.479345799,$GPRMC,082058.000,A,2217.4307,N,11412.6917,E,0.39,10.66,091020,,,A*50\r\n
81.518994331,$GPVTG,10.66,T,,M,0.39,N,0.72,K,A*03\r\n
82.354438305,$GPGGA,082059.000,2217.4306,N,11412.6918,E,1,7,2.00,23.9,M,-0.9,M,,*75\r\n
82.413898468,$GPGSA,A,3,23,20,10,12,24,15,193,,,,,,2.22,2.00,0.95*36\r\n
82.487892628,$GPGSV,3,1,10,20,82,059,28,23,75,036,36,193,61,071,34,10,51,336,41*4C\r\n
82.556506634,$GPGSV,3,2,10,24,34,037,38,12,34,103,27,25,34,148,,44,30,251,*7C\r\n
82.597286225,$GPGSV,3,3,10,15,14,073,20,32,,,33*4E\r\n
82.671086788,$GPRMC,082059.000,A,2217.4306,N,11412.6918,E,0.49,10.66,091020,,,A*58\r\n
82.710687161,$GPVTG,10.66,T,,M,0.49,N,0.90,K,A*08\r\n
83.353977680,$GPGGA,082100.000,2217.4305,N,11412.6919,E,1,7,2.00,23.9,M,-0.9,M,,*7A\r\n
83.413272381,$GPGSA,A,3,23,20,10,12,24,15,193,,,,,,2.22,2.00,0.95*36\r\n
83.487256050,$GPRMC,082100.000,A,2217.4305,N,11412.6919,E,0.57,10.66,091020,,,A*58\r\n
83.526906014,$GPVTG,10.66,T,,M,0.57,N,1.05,K,A*0A\r\n
84.364821434,$GPGGA,082101.000,2217.4303,N,11412.6919,E,1,8,1.71,23.8,M,-0.9,M,,*76\r\n
84.426486492,$GPGSA,A,3,23,20,10,12,24,15,193,32,,,,,1.90,1.71,0.84*38\r\n
84.501288414,$GPRMC,082101.000,A,2217.4303,N,11412.6919,E,0.62,167.80,091020,,,A*60\r\n
84.541916847,$GPVTG,167.80,T,,M,0.62,N,1.14,K,A*35\r\n
85.366160393,$GPGGA,082102.000,2217.4284,N,11412.6904,E,1,8,1.71,18.6,M,-0.9,M,,*71\r\n
85.427698612,$GPGSA,A,3,23,20,10,12,24,15,193,32,,,,,1.90,1.71,0.84*38\r\n
85.502487183,$GPRMC,082102.000,A,2217.4284,N,11412.6904,E,0.57,167.80,091020,,,A*67\r\n
85.543118477,$GPVTG,167.80,T,,M,0.57,N,1.05,K,A*33\r\n
86.364966869,$GPGGA,082103.000,2217.4281,N,11412.6901,E,1,8,1.71,17.0,M,-0.9,M,,*79\r\n
86.426452160,$GPGSA,A,3,23,20,10,12,24,15,193,32,,,,,1.90,1.71,0.84*38\r\n
86.501434803,$GPRMC,082103.000,A,2217.4281,N,11412.6901,E,0.53,167.80,091020,,,A*62\r\n
86.542242527,$GPVTG,167.80,T,,M,0.53,N,0.98,K,A*32\r\n
87.366597176,$GPGGA,082104.000,2217.4277,N,11412.6897,E,1,8,1.71,15.4,M,-0.9,M,,*7F\r\n
87.428048134,$GPGSA,A,3,23,20,10,12,24,15,193,32,,,,,1.90,1.71,0.84*38\r\n
87.502005577,$GPGSV,3,1,10,20,82,061,28,23,75,036,37,193,61,071,35,10,51,336,42*44\r\n
87.570794582,$GPGSV,3,2,10,24,34,037,36,12,34,103,27,25,34,148,,44,30,251,*72\r\n
87.616559506,$GPGSV,3,3,10,32,28,298,35,15,14,073,24*75\r\n
87.692022324,$GPRMC,082104.000,A,2217.4277,N,11412.6897,E,0.48,167.80,091020,,,A*68\r\n
87.742670536,$GPVTG,167.80,T,,M,0.48,N,0.89,K,A*38\r\n
88.357856751,$GPGGA,082105.000,2217.4274,N,11412.6894,E,1,8,1.71,13.8,M,-0.9,M,,*74\r\n
88.419348240,$GPGSA,A,3,23,20,10,12,24,15,193,32,,,,,1.90,1.71,0.84*38\r\n
88.494325161,$GPRMC,082105.000,A,2217.4274,N,11412.6894,E,0.42,167.80,091020,,,A*63\r\n
88.535209179,$GPVTG,167.80,T,,M,0.42,N,0.77,K,A*33\r\n
89.355952263,$GPGGA,082106.000,2217.4273,N,11412.6893,E,1,8,1.71,13.8,M,-0.9,M,,*77\r\n
89.417534351,$GPGSA,A,3,23,20,10,12,24,15,193,32,,,,,1.90,1.71,0.84*38\r\n
89.492436409,$GPRMC,082106.000,A,2217.4273,N,11412.6893,E,0.04,167.80,091020,,,A*62\r\n
89.533005715,$GPVTG,167.80,T,,M,0.04,N,0.07,K,A*36\r\n
90.361206055,$GPGGA,082107.000,2217.4272,N,11412.6893,E,1,8,1.71,13.7,M,-0.9,M,,*78\r\n
90.422392845,$GPGSA,A,3,23,20,10,12,24,15,193,32,,,,,1.90,1.71,0.84*38\r\n
90.497923851,$GPRMC,082107.000,A,2217.4272,N,11412.6893,E,0.04,167.80,091020,,,A*62\r\n
90.538005352,$GPVTG,167.80,T,,M,0.04,N,0.07,K,A*36\r\n
91.357906342,$GPGGA,082108.000,2217.4272,N,11412.6893,E,1,8,1.71,13.7,M,-0.9,M,,*77\r\n
91.419718266,$GPGSA,A,3,23,20,10,12,24,15,193,32,,,,,1.90,1.71,0.84*38\r\n
91.494359493,$GPRMC,082108.000,A,2217.4272,N,11412.6893,E,0.18,167.80,091020,,,A*60\r\n
91.534965992,$GPVTG,167.80,T,,M,0.18,N,0.34,K,A*3B\r\n
92.359102726,$GPGGA,082109.000,2217.4272,N,11412.6893,E,1,8,1.71,13.7,M,-0.9,M,,*76\r\n
92.419915199,$GPGSA,A,3,23,20,10,12,24,15,193,32,,,,,1.90,1.71,0.84*38\r\n
92.493882656,$GPGSV,3,1,10,20,82,061,30,23,75,037,36,193,61,071,34,10,51,336,41*4F\r\n
92.564878464,$GPGSV,3,2,10,24,34,037,35,12,34,103,28,25,34,148,,32,28,298,33*73\r\n
92.608528137,$GPGSV,3,3,10,40,28,252,,15,14,073,25*71\r\n
92.683838368,$GPRMC,082109.000,A,2217.4272,N,11412.6893,E,0.19,167.80,091020,,,A*60\r\n
92.724077702,$GPVTG,167.80,T,,M,0.19,N,0.34,K,A*3A\r\n
93.357182980,$GPGGA,082110.000,2217.4271,N,11412.6893,E,1,8,1.71,13.6,M,-0.9,M,,*7C\r\n
93.418325901,$GPGSA,A,3,23,20,10,12,24,15,193,32,,,,,1.90,1.71,0.84*38\r\n
93.493635655,$GPRMC,082110.000,A,2217.4271,N,11412.6893,E,0.20,167.80,091020,,,A*61\r\n
93.533977509,$GPVTG,167.80,T,,M,0.20,N,0.38,K,A*3C\r\n
94.356942177,$GPGGA,082111.000,2217.4270,N,11412.6893,E,1,8,1.71,13.6,M,-0.9,M,,*7C\r\n
94.418458939,$GPGSA,A,3,23,20,10,12,24,15,193,32,,,,,1.90,1.71,0.84*38\r\n
94.493382454,$GPRMC,082111.000,A,2217.4270,N,11412.6893,E,0.31,167.80,091020,,,A*61\r\n
94.534152031,$GPVTG,167.80,T,,M,0.31,N,0.57,K,A*35\r\n
95.358903408,$GPGGA,082112.000,2217.4269,N,11412.6893,E,1,8,1.71,13.6,M,-0.9,M,,*77\r\n
95.420327664,$GPGSA,A,3,23,20,10,12,24,15,193,32,,,,,1.90,1.71,0.84*38\r\n
95.495624066,$GPRMC,082112.000,A,2217.4269,N,11412.6893,E,0.29,167.80,091020,,,A*63\r\n
95.536079884,$GPVTG,167.80,T,,M,0.29,N,0.53,K,A*38\r\n
96.361151218,$GPGGA,082113.000,2217.4269,N,11412.6893,E,1,8,1.71,13.6,M,-0.9,M,,*76\r\n
96.423137188,$GPGSA,A,3,23,20,10,12,24,15,193,32,,,,,1.90,1.71,0.84*38\r\n
96.497567177,$GPRMC,082113.000,A,2217.4269,N,11412.6893,E,0.01,167.80,091020,,,A*68\r\n
96.538208485,$GPVTG,167.80,T,,M,0.01,N,0.02,K,A*36\r\n
97.366778374,$GPGGA,082114.000,2217.4269,N,11412.6893,E,1,8,1.71,13.5,M,-0.9,M,,*72\r\n
97.428064346,$GPGSA,A,3,23,20,10,12,24,15,193,32,,,,,1.90,1.71,0.84*38\r\n
97.501921177,$GPGSV,3,1,10,20,82,061,30,23,75,037,36,193,61,071,34,10,51,336,41*4F\r\n
97.573030949,$GPGSV,3,2,10,24,34,037,34,12,34,103,29,25,34,148,,32,28,298,33*73\r\n
97.617088795,$GPGSV,3,3,10,40,28,252,,15,14,073,24*70\r\n
97.691743851,$GPRMC,082114.000,A,2217.4269,N,11412.6893,E,0.10,167.80,091020,,,A*6F\r\n
97.732082844,$GPVTG,167.80,T,,M,0.10,N,0.18,K,A*3D\r\n
98.356796265,$GPGGA,082115.000,2217.4268,N,11412.6893,E,1,8,1.71,13.5,M,-0.9,M,,*72\r\n
98.418227673,$GPGSA,A,3,23,20,10,12,24,15,193,32,,,,,1.90,1.71,0.84*38\r\n
98.493220806,$GPRMC,082115.000,A,2217.4268,N,11412.6893,E,0.02,167.80,091020,,,A*6C\r\n
98.533993244,$GPVTG,167.80,T,,M,0.02,N,0.04,K,A*33\r\n
99.356967449,$GPGGA,082116.000,2217.4268,N,11412.6893,E,1,8,1.71,13.5,M,-0.9,M,,*71\r\n
99.418258667,$GPGSA,A,3,23,20,10,12,24,15,193,32,,,,,1.90,1.71,0.84*38\r\n
99.493546009,$GPRMC,082116.000,A,2217.4268,N,11412.6893,E,0.02,167.80,091020,,,A*6F\r\n
99.533886910,$GPVTG,167.80,T,,M,0.02,N,0.03,K,A*34\r\n
100.355896473,$GPGGA,082117.000,2217.4268,N,11412.6893,E,1,8,1.71,13.5,M,-0.9,M,,*70\r\n
100.417479515,$GPGSA,A,3,23,20,10,12,24,15,193,32,,,,,1.90,1.71,0.84*38\r\n
100.492259503,$GPRMC,082117.000,A,2217.4268,N,11412.6893,E,0.04,167.80,091020,,,A*68\r\n
100.532938957,$GPVTG,167.80,T,,M,0.04,N,0.08,K,A*39\r\n
101.356951237,$GPGGA,082118.000,2217.4268,N,11412.6893,E,1,8,1.71,13.5,M,-0.9,M,,*7F\r\n
101.418463707,$GPGSA,A,3,23,20,10,12,24,15,193,32,,,,,1.90,1.71,0.84*38\r\n
101.493335247,$GPRMC,082118.000,A,2217.4268,N,11412.6893,E,0.03,167.80,091020,,,A*60\r\n
101.533933640,$GPVTG,167.80,T,,M,0.03,N,0.05,K,A*33\r\n
102.359891415,$GPGGA,082119.000,2217.4268,N,11412.6893,E,1,8,1.71,13.4,M,-0.9,M,,*7F\r\n
102.421055794,$GPGSA,A,3,23,20,10,12,24,15,193,32,,,,,1.90,1.71,0.84*38\r\n
102.494017601,$GPGSV,3,1,11,20,82,061,26,23,75,037,36,193,61,071,35,194,56,104,*74\r\n
102.564795494,$GPGSV,3,2,11,10,51,336,41,24,34,037,35,12,34,103,27,25,34,148,*73\r\n
102.616881371,$GPGSV,3,3,11,32,28,298,34,15,14,073,24,34,,,*72\r\n
102.692074299,$GPRMC,082119.000,A,2217.4268,N,11412.6893,E,0.01,167.80,091020,,,A*63\r\n
102.732520580,$GPVTG,167.80,T,,M,0.01,N,0.03,K,A*37\r\n
103.364829540,$GPGGA,082120.000,2217.4267,N,11412.6892,E,1,8,1.71,13.0,M,-0.9,M,,*7F\r\n
103.426291943,$GPGSA,A,3,23,20,10,12,24,15,193,32,,,,,1.90,1.71,0.84*38\r\n
103.501317501,$GPRMC,082120.000,A,2217.4267,N,11412.6892,E,0.02,167.80,091020,,,A*64\r\n
103.542066574,$GPVTG,167.80,T,,M,0.02,N,0.05,K,A*32\r\n
104.364890575,$GPGGA,082121.000,2217.4265,N,11412.6891,E,1,8,1.71,12.5,M,-0.9,M,,*7B\r\n
104.426837921,$GPGSA,A,3,23,20,10,12,24,15,193,32,,,,,1.90,1.71,0.84*38\r\n
104.501632691,$GPRMC,082121.000,A,2217.4265,N,11412.6891,E,0.02,167.80,091020,,,A*64\r\n
104.542009354,$GPVTG,167.80,T,,M,0.02,N,0.03,K,A*34\r\n
105.366065502,$GPGGA,082122.000,2217.4264,N,11412.6890,E,1,8,1.71,12.2,M,-0.9,M,,*7F\r\n
105.428048611,$GPGSA,A,3,23,20,10,12,24,15,193,32,,,,,1.90,1.71,0.84*38\r\n
105.502657890,$GPRMC,082122.000,A,2217.4264,N,11412.6890,E,0.04,167.80,091020,,,A*61\r\n
105.543082714,$GPVTG,167.80,T,,M,0.04,N,0.07,K,A*36\r\n
106.365039349,$GPGGA,082123.000,2217.4262,N,11412.6888,E,1,8,1.71,11.7,M,-0.9,M,,*77\r\n
106.426466942,$GPGSA,A,3,23,20,10,12,24,15,193,32,,,,,1.91,1.71,0.84*39\r\n
106.501536369,$GPRMC,082123.000,A,2217.4262,N,11412.6888,E,0.02,167.80,091020,,,A*69\r\n
106.541954041,$GPVTG,167.80,T,,M,0.02,N,0.04,K,A*33\r\n
107.365893841,$GPGGA,082124.000,2217.4261,N,11412.6887,E,1,8,1.71,11.3,M,-0.9,M,,*78\r\n
107.426907539,$GPGSA,A,3,23,20,10,12,24,15,193,32,,,,,1.90,1.71,0.84*38\r\n
107.499843598,$GPGSV,3,1,11,20,82,061,25,23,75,037,36,193,61,071,35,194,56,104,*77\r\n
107.571492195,$GPGSV,3,2,11,10,51,336,41,24,34,037,35,12,34,103,25,25,34,148,*71\r\n
107.622714996,$GPGSV,3,3,11,32,28,298,33,15,14,073,24,35,,,*74\r\n
107.697775364,$GPRMC,082124.000,A,2217.4261,N,11412.6887,E,0.02,167.80,091020,,,A*62\r\n
107.738381863,$GPVTG,167.80,T,,M,0.02,N,0.04,K,A*33\r\n
108.366986752,$GPGGA,082125.000,2217.4259,N,11412.6887,E,1,8,1.71,11.0,M,-0.9,M,,*71\r\n
108.429034710,$GPGSA,A,3,23,20,10,12,24,15,193,32,,,,,1.90,1.71,0.84*38\r\n
108.503828049,$GPRMC,082125.000,A,2217.4259,N,11412.6887,E,0.02,167.80,091020,,,A*68\r\n
108.543984890,$GPVTG,167.80,T,,M,0.02,N,0.05,K,A*32\r\n
109.358027935,$GPGGA,082126.000,2217.4255,N,11412.6887,E,1,8,1.78,10.3,M,-0.9,M,,*75\r\n
109.419473171,$GPGSA,A,3,23,20,10,12,24,15,193,32,,,,,2.37,1.78,1.56*31\r\n
109.494976521,$GPRMC,082126.000,A,2217.4255,N,11412.6887,E,0.02,167.80,091020,,,A*67\r\n
109.535024643,$GPVTG,167.80,T,,M,0.02,N,0.04,K,A*33\r\n
110.355819225,$GPGGA,082127.000,2217.4252,N,11412.6887,E,1,8,1.78,9.7,M,-0.9,M,,*4F\r\n
110.417254925,$GPGSA,A,3,23,20,10,12,24,15,193,32,,,,,2.37,1.78,1.56*31\r\n
110.492252827,$GPRMC,082127.000,A,2217.4252,N,11412.6887,E,0.02,167.80,091020,,,A*61\r\n
110.532999992,$GPVTG,167.80,T,,M,0.02,N,0.04,K,A*33\r\n
111.356830597,$GPGGA,082128.000,2217.4248,N,11412.6886,E,1,8,1.78,9.0,M,-0.9,M,,*4D\r\n
111.418313503,$GPGSA,A,3,23,20,10,12,24,15,193,32,,,,,2.37,1.78,1.56*31\r\n
111.493313313,$GPRMC,082128.000,A,2217.4248,N,11412.6886,E,0.02,167.80,091020,,,A*64\r\n
111.534005165,$GPVTG,167.80,T,,M,0.02,N,0.04,K,A*33\r\n
112.356537819,$GPGGA,082129.000,2217.4248,N,11412.6886,E,1,8,1.79,9.0,M,-0.9,M,,*4D\r\n
112.417975426,$GPGSA,A,3,23,20,10,12,24,15,193,32,,,,,2.37,1.79,1.56*30\r\n
112.490981579,$GPGSV,3,1,11,20,82,061,28,23,75,037,36,193,61,071,34,194,56,104,*7B\r\n
112.561675549,$GPGSV,3,2,11,10,51,336,41,24,34,037,36,12,34,103,23,25,34,148,*74\r\n
112.613722325,$GPGSV,3,3,11,32,28,298,33,15,14,073,26,36,,,*75\r\n
112.688993931,$GPRMC,082129.000,A,2217.4248,N,11412.6886,E,0.01,167.80,091020,,,A*66\r\n
112.729329586,$GPVTG,167.80,T,,M,0.01,N,0.02,K,A*36\r\n
113.355856419,$GPGGA,082130.000,2217.4248,N,11412.6886,E,1,8,1.79,9.0,M,-0.9,M,,*45\r\n
113.417341709,$GPGSA,A,3,23,20,10,12,24,15,193,32,,,,,2.37,1.79,1.56*30\r\n
113.492313862,$GPRMC,082130.000,A,2217.4248,N,11412.6886,E,0.02,167.80,091020,,,A*6D\r\n
113.532917500,$GPVTG,167.80,T,,M,0.02,N,0.03,K,A*34\r\n
114.357821465,$GPGGA,082131.000,2217.4247,N,11412.6886,E,1,8,1.79,9.0,M,-0.9,M,,*4B\r\n
114.419244289,$GPGSA,A,3,23,20,10,12,24,15,193,32,,,,,2.37,1.79,1.56*30\r\n
114.494249821,$GPRMC,082131.000,A,2217.4247,N,11412.6886,E,0.01,167.80,091020,,,A*60\r\n
114.534976483,$GPVTG,167.80,T,,M,0.01,N,0.02,K,A*36\r\n
115.354911327,$GPGGA,082132.000,2217.4247,N,11412.6886,E,1,8,1.79,9.0,M,-0.9,M,,*48\r\n
115.416267395,$GPGSA,A,3,23,20,10,12,24,15,193,32,,,,,2.37,1.79,1.56*30\r\n
115.491925717,$GPRMC,082132.000,A,2217.4247,N,11412.6886,E,0.01,167.80,091020,,,A*63\r\n
115.531910420,$GPVTG,167.80,T,,M,0.01,N,0.02,K,A*36\r\n
116.355821133,$GPGGA,082133.000,2217.4247,N,11412.6886,E,1,8,1.79,8.9,M,-0.9,M,,*41\r\n
116.417280197,$GPGSA,A,3,23,20,10,12,24,15,193,32,,,,,2.37,1.79,1.56*30\r\n
116.492457390,$GPRMC,082133.000,A,2217.4247,N,11412.6886,E,0.02,167.80,091020,,,A*61\r\n
116.532934189,$GPVTG,167.80,T,,M,0.02,N,0.04,K,A*33\r\n
117.357651234,$GPGGA,082134.000,2217.4247,N,11412.6886,E,1,8,1.79,8.9,M,-0.9,M,,*46\r\n
117.418950558,$GPGSA,A,3,23,20,10,12,24,15,193,32,,,,,2.37,1.79,1.56*30\r\n
117.493948460,$GPGSV,3,1,11,20,82,061,31,23,75,037,34,193,61,071,32,194,56,104,29*7C\r\n
117.564762592,$GPGSV,3,2,11,10,51,336,41,24,34,037,37,12,34,103,23,25,34,148,*75\r\n
117.616991997,$GPGSV,3,3,11,32,28,298,31,15,14,074,28,38,,,*70\r\n
117.691931248,$GPRMC,082134.000,A,2217.4247,N,11412.6886,E,0.03,167.80,091020,,,A*67\r\n
117.732483387,$GPVTG,167.80,T,,M,0.03,N,0.05,K,A*33\r\n
118.363940239,$GPGGA,082135.000,2217.4247,N,11412.6886,E,1,8,1.79,8.9,M,-0.9,M,,*47\r\n
118.425850391,$GPGSA,A,3,23,20,10,12,24,15,193,32,,,,,2.37,1.79,1.56*30\r\n
118.500437737,$GPRMC,082135.000,A,2217.4247,N,11412.6886,E,0.03,167.80,091020,,,A*66\r\n
118.540956020,$GPVTG,167.80,T,,M,0.03,N,0.06,K,A*30\r\n
119.355922222,$GPGGA,082136.000,2217.4247,N,11412.6886,E,1,8,1.79,8.9,M,-0.9,M,,*44\r\n
119.417368889,$GPGSA,A,3,23,20,10,12,24,15,193,32,,,,,2.38,1.79,1.56*3F\r\n
119.492348671,$GPRMC,082136.000,A,2217.4247,N,11412.6886,E,0.01,167.80,091020,,,A*67\r\n
119.533280373,$GPVTG,167.80,T,,M,0.01,N,0.01,K,A*35\r\n
120.359923840,$GPGGA,082137.000,2217.4247,N,11412.6886,E,1,8,1.79,8.9,M,-0.9,M,,*45\r\n
120.421370506,$GPGSA,A,3,23,20,10,12,24,15,193,32,,,,,2.37,1.79,1.56*30\r\n
120.496354103,$GPRMC,082137.000,A,2217.4247,N,11412.6886,E,0.04,167.80,091020,,,A*63\r\n
120.537436962,$GPVTG,167.80,T,,M,0.04,N,0.08,K,A*39\r\n
121.355675697,$GPGGA,082138.000,2217.4247,N,11412.6886,E,1,8,1.79,8.9,M,-0.9,M,,*4A\r\n
121.417162418,$GPGSA,A,3,23,20,10,12,24,15,193,32,,,,,2.37,1.79,1.56*30\r\n
121.492151260,$GPRMC,082138.000,A,2217.4247,N,11412.6886,E,0.02,167.80,091020,,,A*6A\r\n
121.532752037,$GPVTG,167.80,T,,M,0.02,N,0.04,K,A*33\r\n
122.356415749,$GPGGA,082139.000,2217.4247,N,11412.6886,E,1,8,1.79,8.9,M,-0.9,M,,*4B\r\n
122.417901516,$GPGSA,A,3,23,20,10,12,24,15,193,32,,,,,2.37,1.79,1.56*30\r\n
122.492870808,$GPGSV,3,1,11,20,82,061,32,23,75,037,37,193,61,071,35,194,56,104,23*71\r\n
122.563889027,$GPGSV,3,2,11,10,51,336,41,24,34,037,37,12,34,103,30,25,34,148,*77\r\n
122.615900040,$GPGSV,3,3,11,32,28,298,33,15,14,074,27,38,,,*7D\r\n
122.690824986,$GPRMC,082139.000,A,2217.4247,N,11412.6886,E,0.02,167.80,091020,,,A*6B\r\n
122.731425286,$GPVTG,167.80,T,,M,0.02,N,0.04,K,A*33\r\n
123.356897354,$GPGGA,082140.000,2217.4247,N,11412.6886,E,1,8,1.79,8.9,M,-0.9,M,,*45\r\n
123.418553352,$GPGSA,A,3,23,20,10,12,24,15,193,32,,,,,2.38,1.79,1.57*3E\r\n
123.493669987,$GPRMC,082140.000,A,2217.4247,N,11412.6886,E,0.02,167.80,091020,,,A*65\r\n
123.533968449,$GPVTG,167.80,T,,M,0.02,N,0.04,K,A*33\r\n
124.363835812,$GPGGA,082141.000,2217.4247,N,11412.6886,E,1,8,1.79,8.9,M,-0.9,M,,*44\r\n
124.425365448,$GPGSA,A,3,23,20,10,12,24,15,193,32,,,,,2.38,1.79,1.56*3F\r\n
124.500329971,$GPRMC,082141.000,A,2217.4247,N,11412.6886,E,0.02,167.80,091020,,,A*64\r\n
124.541512013,$GPVTG,167.80,T,,M,0.02,N,0.03,K,A*34\r\n
125.362938404,$GPGGA,082142.000,2217.4247,N,11412.6886,E,1,8,1.79,8.9,M,-0.9,M,,*47\r\n
125.424361229,$GPGSA,A,3,23,20,10,12,24,15,193,32,,,,,2.38,1.79,1.57*3E\r\n
125.499385357,$GPRMC,082142.000,A,2217.4247,N,11412.6886,E,0.02,167.80,091020,,,A*67\r\n
125.540176869,$GPVTG,167.80,T,,M,0.02,N,0.04,K,A*33\r\n
126.357849598,$GPGGA,082143.000,2217.4247,N,11412.6886,E,1,8,1.79,8.8,M,-0.9,M,,*47\r\n
126.419816971,$GPGSA,A,3,23,20,10,12,24,15,193,32,,,,,2.38,1.79,1.56*3F\r\n
126.494600773,$GPRMC,082143.000,A,2217.4247,N,11412.6886,E,0.05,167.80,091020,,,A*61\r\n
126.534893513,$GPVTG,167.80,T,,M,0.05,N,0.10,K,A*31\r\n
127.364429474,$GPGGA,082144.000,2217.4247,N,11412.6886,E,1,8,1.79,8.8,M,-0.9,M,,*40\r\n
127.426101685,$GPGSA,A,3,23,20,10,12,24,15,193,32,,,,,2.38,1.79,1.56*3F\r\n
127.500902176,$GPGSV,3,1,11,20,82,063,33,23,75,038,37,193,61,071,34,194,56,104,22*7D\r\n
127.571710587,$GPGSV,3,2,11,10,51,336,41,24,34,037,37,12,34,103,30,25,34,148,*77\r\n
127.623859406,$GPGSV,3,3,11,32,28,298,33,15,14,074,21,41,,,*75\r\n
127.698836327,$GPRMC,082144.000,A,2217.4247,N,11412.6886,E,0.01,167.80,091020,,,A*62\r\n
127.739474297,$GPVTG,167.80,T,,M,0.01,N,0.02,K,A*36\r\n
128.363860607,$GPGGA,082145.000,2217.4247,N,11412.6886,E,1,8,1.79,8.8,M,-0.9,M,,*41\r\n
128.425303459,$GPGSA,A,3,23,20,10,12,24,15,193,32,,,,,2.38,1.79,1.56*3F\r\n
128.500336170,$GPRMC,082145.000,A,2217.4247,N,11412.6886,E,0.04,167.80,091020,,,A*66\r\n
128.541126251,$GPVTG,167.80,T,,M,0.04,N,0.07,K,A*36\r\n
129.364923954,$GPGGA,082146.000,2217.4247,N,11412.6886,E,1,8,1.79,8.8,M,-0.9,M,,*42\r\n
129.426392555,$GPGSA,A,3,23,20,10,12,24,15,193,32,,,,,2.38,1.79,1.57*3E\r\n
129.501384258,$GPRMC,082146.000,A,2217.4247,N,11412.6886,E,0.04,167.80,091020,,,A*65\r\n
129.542423248,$GPVTG,167.80,T,,M,0.04,N,0.07,K,A*36\r\n
130.363806725,$GPGGA,082147.000,2217.4247,N,11412.6886,E,1,8,1.79,8.8,M,-0.9,M,,*43\r\n
130.425251007,$GPGSA,A,3,23,20,10,12,24,15,193,32,,,,,2.38,1.79,1.56*3F\r\n
130.500288487,$GPRMC,082147.000,A,2217.4247,N,11412.6886,E,0.04,167.80,091020,,,A*64\r\n
130.541045666,$GPVTG,167.80,T,,M,0.04,N,0.07,K,A*36\r\n
131.355802059,$GPGGA,082148.000,2217.4247,N,11412.6886,E,1,8,1.79,8.8,M,-0.9,M,,*4C\r\n
131.417293549,$GPGSA,A,3,23,20,10,12,24,15,193,32,,,,,2.38,1.79,1.57*3E\r\n
131.492662907,$GPRMC,082148.000,A,2217.4247,N,11412.6886,E,0.01,167.80,091020,,,A*6E\r\n
131.532897949,$GPVTG,167.80,T,,M,0.01,N,0.02,K,A*36\r\n
132.358401775,$GPGGA,082149.000,2217.4247,N,11412.6886,E,1,8,1.79,8.8,M,-0.9,M,,*4D\r\n
132.419956207,$GPGSA,A,3,23,20,10,12,24,15,193,32,,,,,2.38,1.79,1.57*3E\r\n
132.494872570,$GPGSV,3,1,11,20,82,063,34,23,75,038,37,193,61,071,34,194,56,104,21*79\r\n
132.565682888,$GPGSV,3,2,11,10,51,336,41,24,34,037,38,12,34,103,28,25,34,148,*71\r\n
132.617806912,$GPGSV,3,3,11,32,28,298,33,15,14,074,25,43,,,*73\r\n
132.693476200,$GPRMC,082149.000,A,2217.4247,N,11412.6886,E,0.01,167.80,091020,,,A*6F\r\n
132.734678269,$GPVTG,167.80,T,,M,0.01,N,0.02,K,A*36\r\n
